% program   : RTKPOST ver.2.4.3 Emlid b27
% inp file  : D:\Exemplar\GPS\Flyer\raw_201710230333.obs
% inp file  : D:\Exemplar\GPS\Base\raw_201710230331.obs
% inp file  : D:\Exemplar\GPS\Flyer\raw_201710230333.nav
% inp file  : D:\ReachData\Flyer\raw_201710160042.sbs
% obs start : 2017/10/23 03:33:39.4 GPST (week1972  99219.4s)
% obs end   : 2017/10/23 03:59:45.4 GPST (week1972 100785.4s)
% pos mode  : kinematic
% freqs     : L1
% solution  : forward
% elev mask : 10.0 deg
% dynamics  : on
% tidecorr  : off
% ionos opt : broadcast
% tropo opt : saastamoinen
% ephemeris : broadcast
% navi sys  : gps glonass galileo
% amb res   : fix and hold
% amb glo   : on
% val thres : 2.0
% antenna1  :                       ( 0.0000  0.0000  0.0000)
% antenna2  :                       ( 0.0000  0.0000  0.0000)
% ref pos   :-42.880630558  147.397314262    12.1272
%
% (lat/lon/height=WGS84/ellipsoidal,Q=1:fix,2:float,3:sbas,4:dgps,5:single,6:ppp,ns=# of satellites)
%  GPST                  latitude(deg) longitude(deg)  height(m)   Q  ns   sdn(m)   sde(m)   sdu(m)  sdne(m)  sdeu(m)  sdun(m) age(s)  ratio
2017/10/23 03:33:39.400  -42.880585398  147.397308892    24.4440   2   8   0.6936   0.5560   1.6646  -0.1092   0.2767  -0.1447   0.40    0.0
2017/10/23 03:33:39.600  -42.880592855  147.397297123    21.0959   2   8   0.4931   0.3956   1.1870  -0.0758   0.1925  -0.1031   0.60    0.0
2017/10/23 03:33:39.800  -42.880601315  147.397299369    16.9691   2   9   0.3932   0.3183   0.9459   0.0391   0.1939  -0.1648   0.80    0.0
2017/10/23 03:33:40.000  -42.880604763  147.397302627    16.0089   2   9   0.3374   0.2741   0.8112   0.0521   0.1790  -0.1622   0.00    0.0
2017/10/23 03:33:40.200  -42.880608514  147.397306281    15.1771   2   9   0.3003   0.2444   0.7217   0.0534   0.1652  -0.1537   0.20    0.0
2017/10/23 03:33:40.400  -42.880609309  147.397308450    15.2721   2   9   0.2733   0.2227   0.6566   0.0523   0.1537  -0.1451   0.40    0.0
2017/10/23 03:33:40.600  -42.880610924  147.397310056    15.3672   2   9   0.2525   0.2059   0.6065   0.0505   0.1441  -0.1373   0.60    0.0
2017/10/23 03:33:40.800  -42.880611329  147.397309267    14.8420   2  12   0.2318   0.1923   0.5567   0.0515   0.1351  -0.1177   0.80    0.0
2017/10/23 03:33:41.000  -42.880614820  147.397307852    14.0167   2  17   0.2141   0.1768   0.5071   0.0455   0.1144  -0.1073   0.00    0.0
2017/10/23 03:33:41.200  -42.880616122  147.397304735    13.1562   2  17   0.2001   0.1648   0.4695   0.0412   0.1002  -0.0993   0.20    0.0
2017/10/23 03:33:41.400  -42.880617495  147.397303393    12.5561   2  17   0.1885   0.1551   0.4392   0.0378   0.0894  -0.0928   0.40    0.0
2017/10/23 03:33:41.600  -42.880618910  147.397302520    12.2364   2  17   0.1787   0.1469   0.4142   0.0350   0.0809  -0.0874   0.60    0.0
2017/10/23 03:33:41.800  -42.880620386  147.397302080    12.0282   2  17   0.1703   0.1399   0.3930   0.0327   0.0740  -0.0828   0.80    0.0
2017/10/23 03:33:42.000  -42.880621829  147.397302110    11.7156   2  17   0.1629   0.1338   0.3748   0.0307   0.0684  -0.0788   0.00    0.0
2017/10/23 03:33:42.200  -42.880622435  147.397301924    11.4605   2  17   0.1565   0.1284   0.3589   0.0291   0.0636  -0.0754   0.20    0.0
2017/10/23 03:33:42.400  -42.880622705  147.397302325    11.2849   2  17   0.1507   0.1237   0.3449   0.0276   0.0595  -0.0724   0.40    0.0
2017/10/23 03:33:42.600  -42.880623686  147.397302000    11.1927   2  17   0.1456   0.1194   0.3324   0.0264   0.0560  -0.0697   0.60    0.0
2017/10/23 03:33:42.800  -42.880624085  147.397301584    11.0560   2  17   0.1409   0.1156   0.3212   0.0253   0.0529  -0.0673   0.80    0.0
2017/10/23 03:33:43.000  -42.880624485  147.397301323    10.9595   2  17   0.1367   0.1121   0.3111   0.0243   0.0502  -0.0651   0.00    0.0
2017/10/23 03:33:43.200  -42.880624952  147.397300897    10.8413   2  17   0.1328   0.1089   0.3018   0.0234   0.0478  -0.0631   0.20    0.0
2017/10/23 03:33:43.400  -42.880625509  147.397301104    10.7739   2  17   0.1293   0.1060   0.2934   0.0226   0.0457  -0.0612   0.40    0.0
2017/10/23 03:33:43.600  -42.880626090  147.397300768    10.7658   2  17   0.1260   0.1033   0.2856   0.0218   0.0438  -0.0596   0.60    0.0
2017/10/23 03:33:43.800  -42.880626729  147.397300830    10.7682   2  17   0.1229   0.1007   0.2784   0.0212   0.0420  -0.0580   0.80    0.0
2017/10/23 03:33:44.000  -42.880626855  147.397300817    10.7279   2  17   0.1201   0.0984   0.2717   0.0206   0.0405  -0.0566   0.00    0.0
2017/10/23 03:33:44.200  -42.880626913  147.397300661    10.5607   2  17   0.1174   0.0962   0.2655   0.0200   0.0390  -0.0552   0.20    0.0
2017/10/23 03:33:44.400  -42.880626735  147.397300429    10.4455   2  17   0.1149   0.0942   0.2597   0.0195   0.0377  -0.0540   0.40    0.0
2017/10/23 03:33:44.600  -42.880626785  147.397300332    10.3642   2  17   0.1126   0.0923   0.2542   0.0190   0.0365  -0.0528   0.60    0.0
2017/10/23 03:33:44.800  -42.880626917  147.397300274    10.3447   2  17   0.1104   0.0905   0.2491   0.0185   0.0353  -0.0517   0.80    0.0
2017/10/23 03:33:45.000  -42.880627148  147.397300057    10.2831   2  17   0.1083   0.0888   0.2443   0.0181   0.0343  -0.0507   0.00    0.0
2017/10/23 03:33:45.200  -42.880627345  147.397299763    10.2507   2  17   0.1064   0.0872   0.2397   0.0177   0.0333  -0.0497   0.20    0.0
2017/10/23 03:33:45.400  -42.880627563  147.397299529    10.2134   2  17   0.1045   0.0857   0.2354   0.0173   0.0324  -0.0487   0.40    0.0
2017/10/23 03:33:45.600  -42.880627823  147.397299260    10.1765   2  17   0.1028   0.0842   0.2313   0.0170   0.0316  -0.0479   0.60    0.0
2017/10/23 03:33:45.800  -42.880628033  147.397298959    10.1475   2  17   0.1011   0.0828   0.2274   0.0167   0.0308  -0.0470   0.80    0.0
2017/10/23 03:33:46.000  -42.880628223  147.397298541    10.1189   2  17   0.0995   0.0815   0.2237   0.0163   0.0301  -0.0462   0.00    0.0
2017/10/23 03:33:46.200  -42.880628388  147.397298184    10.1073   2  17   0.0980   0.0803   0.2202   0.0160   0.0294  -0.0455   0.20    0.0
2017/10/23 03:33:46.400  -42.880628578  147.397297855    10.0918   2  17   0.0965   0.0791   0.2169   0.0158   0.0287  -0.0447   0.40    0.0
2017/10/23 03:33:46.600  -42.880628735  147.397297533    10.0713   2  17   0.0951   0.0780   0.2136   0.0155   0.0281  -0.0440   0.60    0.0
2017/10/23 03:33:46.800  -42.880628851  147.397297223    10.0514   2  17   0.0938   0.0769   0.2106   0.0152   0.0275  -0.0434   0.80    0.0
2017/10/23 03:33:47.000  -42.880629032  147.397296924    10.0551   2  17   0.0925   0.0758   0.2076   0.0150   0.0269  -0.0427   0.00    0.0
2017/10/23 03:33:47.200  -42.880629188  147.397296640    10.0646   2  17   0.0913   0.0748   0.2048   0.0148   0.0264  -0.0421   0.20    0.0
2017/10/23 03:33:47.400  -42.880629349  147.397296386    10.0702   2  17   0.0901   0.0738   0.2021   0.0145   0.0259  -0.0415   0.40    0.0
2017/10/23 03:33:47.600  -42.880629465  147.397296148    10.0714   2  17   0.0889   0.0729   0.1995   0.0143   0.0254  -0.0409   0.60    0.0
2017/10/23 03:33:47.800  -42.880629590  147.397295914    10.0773   2  17   0.0878   0.0720   0.1970   0.0141   0.0250  -0.0404   0.80    0.0
2017/10/23 03:33:48.000  -42.880629712  147.397295694    10.0938   2  17   0.0868   0.0712   0.1945   0.0139   0.0246  -0.0399   0.00    0.0
2017/10/23 03:33:48.200  -42.880629806  147.397295473    10.1054   2  17   0.0858   0.0704   0.1924   0.0138   0.0243  -0.0394   0.20    1.1
2017/10/23 03:33:48.400  -42.880629891  147.397295278    10.1110   2  17   0.0848   0.0695   0.1901   0.0136   0.0238  -0.0389   0.40    1.0
2017/10/23 03:33:48.600  -42.880629951  147.397295094    10.1194   2  17   0.0838   0.0687   0.1879   0.0134   0.0234  -0.0384   0.60    1.0
2017/10/23 03:33:48.800  -42.880630008  147.397294917    10.1250   2  17   0.0829   0.0680   0.1857   0.0133   0.0230  -0.0379   0.80    1.1
2017/10/23 03:33:49.000  -42.880630097  147.397294815    10.1352   2  17   0.0820   0.0673   0.1837   0.0131   0.0226  -0.0375   0.00    1.1
2017/10/23 03:33:49.200  -42.880630167  147.397294700    10.1401   2  17   0.0811   0.0666   0.1817   0.0129   0.0223  -0.0370   0.20    1.1
2017/10/23 03:33:49.400  -42.880630210  147.397294598    10.1423   2  17   0.0803   0.0659   0.1798   0.0128   0.0220  -0.0366   0.40    1.2
2017/10/23 03:33:49.600  -42.880630252  147.397294502    10.1424   2  17   0.0795   0.0652   0.1780   0.0127   0.0216  -0.0362   0.60    1.2
2017/10/23 03:33:49.800  -42.880630277  147.397294393    10.1439   2  17   0.0787   0.0646   0.1762   0.0125   0.0214  -0.0358   0.80    1.1
2017/10/23 03:33:50.000  -42.880630296  147.397294308    10.1492   2  17   0.0779   0.0640   0.1744   0.0124   0.0211  -0.0354   0.00    1.0
2017/10/23 03:33:50.200  -42.880630314  147.397294205    10.1523   2  17   0.0772   0.0634   0.1727   0.0123   0.0207  -0.0351   0.20    1.0
2017/10/23 03:33:50.400  -42.880630277  147.397294059    10.1165   2  19   0.0765   0.0628   0.1709   0.0122   0.0203  -0.0346   0.40    1.4
2017/10/23 03:33:50.600  -42.880630294  147.397293993    10.1162   2  19   0.0758   0.0622   0.1692   0.0121   0.0199  -0.0341   0.60    1.4
2017/10/23 03:33:50.800  -42.880630303  147.397293935    10.1064   2  19   0.0751   0.0616   0.1675   0.0120   0.0195  -0.0337   0.80    1.4
2017/10/23 03:33:51.000  -42.880630275  147.397293814    10.1000   2  19   0.0744   0.0611   0.1658   0.0119   0.0191  -0.0332   0.00    1.4
2017/10/23 03:33:51.200  -42.880630236  147.397293707    10.0946   2  19   0.0738   0.0605   0.1642   0.0119   0.0187  -0.0328   0.20    1.4
2017/10/23 03:33:51.400  -42.880630227  147.397293593    10.0903   2  19   0.0731   0.0600   0.1627   0.0118   0.0184  -0.0324   0.40    1.5
2017/10/23 03:33:51.600  -42.880630196  147.397293477    10.0855   2  19   0.0725   0.0595   0.1612   0.0117   0.0180  -0.0320   0.60    1.5
2017/10/23 03:33:51.800  -42.880630182  147.397293363    10.0714   2  19   0.0719   0.0590   0.1597   0.0116   0.0177  -0.0316   0.80    1.6
2017/10/23 03:33:52.000  -42.880630169  147.397293241    10.0606   2  19   0.0713   0.0585   0.1583   0.0115   0.0174  -0.0313   0.00    1.6
2017/10/23 03:33:52.200  -42.880630170  147.397293101    10.0593   2  19   0.0707   0.0581   0.1569   0.0115   0.0170  -0.0309   0.20    1.6
2017/10/23 03:33:52.400  -42.880630185  147.397292989    10.0599   2  19   0.0702   0.0576   0.1555   0.0114   0.0167  -0.0306   0.40    1.7
2017/10/23 03:33:52.600  -42.880630179  147.397292884    10.0662   2  19   0.0696   0.0572   0.1542   0.0113   0.0165  -0.0302   0.60    1.7
2017/10/23 03:33:52.800  -42.880630191  147.397292780    10.0715   2  19   0.0691   0.0567   0.1529   0.0113   0.0162  -0.0299   0.80    1.7
2017/10/23 03:33:53.000  -42.880630205  147.397292676    10.0827   2  19   0.0685   0.0563   0.1517   0.0112   0.0159  -0.0296   0.00    1.8
2017/10/23 03:33:53.200  -42.880630223  147.397292569    10.0893   2  19   0.0680   0.0559   0.1505   0.0111   0.0156  -0.0292   0.20    1.8
2017/10/23 03:33:53.400  -42.880630242  147.397292451    10.0941   2  19   0.0675   0.0555   0.1493   0.0111   0.0154  -0.0289   0.40    1.8
2017/10/23 03:33:53.600  -42.880630271  147.397292337    10.0947   2  19   0.0670   0.0551   0.1481   0.0110   0.0151  -0.0286   0.60    1.8
2017/10/23 03:33:53.800  -42.880630290  147.397292218    10.0978   2  19   0.0666   0.0547   0.1469   0.0109   0.0149  -0.0283   0.80    1.8
2017/10/23 03:33:54.000  -42.880630313  147.397292121    10.1086   2  19   0.0661   0.0543   0.1458   0.0109   0.0147  -0.0280   0.00    1.8
2017/10/23 03:33:54.200  -42.880630342  147.397292009    10.1154   2  19   0.0656   0.0539   0.1447   0.0108   0.0144  -0.0278   0.20    1.9
2017/10/23 03:33:54.400  -42.880630387  147.397291903    10.1214   2  19   0.0652   0.0535   0.1436   0.0107   0.0142  -0.0275   0.40    1.9
2017/10/23 03:33:54.600  -42.880630409  147.397291800    10.1278   2  19   0.0647   0.0532   0.1426   0.0107   0.0140  -0.0272   0.60    1.9
2017/10/23 03:33:54.800  -42.880630450  147.397291713    10.1381   2  19   0.0643   0.0528   0.1416   0.0106   0.0138  -0.0269   0.80    1.9
2017/10/23 03:33:55.000  -42.880630498  147.397291623    10.1531   2  19   0.0639   0.0525   0.1406   0.0106   0.0136  -0.0267   0.00    1.9
2017/10/23 03:33:55.200  -42.880630541  147.397291532    10.1631   2  19   0.0635   0.0521   0.1396   0.0105   0.0134  -0.0264   0.20    1.9
2017/10/23 03:33:55.400  -42.880630581  147.397291453    10.1706   2  19   0.0630   0.0518   0.1386   0.0104   0.0132  -0.0262   0.40    1.9
2017/10/23 03:33:55.600  -42.880630628  147.397291383    10.1789   2  19   0.0626   0.0515   0.1377   0.0104   0.0130  -0.0259   0.60    1.9
2017/10/23 03:33:55.800  -42.880630682  147.397291309    10.1850   2  19   0.0622   0.0512   0.1367   0.0103   0.0128  -0.0257   0.80    1.9
2017/10/23 03:33:56.000  -42.880630724  147.397291237    10.1883   2  19   0.0619   0.0509   0.1358   0.0103   0.0127  -0.0254   0.00    1.9
2017/10/23 03:33:56.200  -42.880630770  147.397291158    10.1877   2  19   0.0615   0.0505   0.1349   0.0102   0.0125  -0.0252   0.20    1.9
2017/10/23 03:33:56.400  -42.880630820  147.397291078    10.1869   2  19   0.0611   0.0502   0.1341   0.0102   0.0123  -0.0250   0.40    1.9
2017/10/23 03:33:56.600  -42.880630862  147.397291017    10.1848   2  19   0.0607   0.0500   0.1332   0.0101   0.0122  -0.0247   0.60    1.9
2017/10/23 03:33:56.800  -42.880630902  147.397290965    10.1841   2  19   0.0604   0.0497   0.1324   0.0101   0.0120  -0.0245   0.80    1.9
2017/10/23 03:33:57.000  -42.880630949  147.397290907    10.1827   2  19   0.0600   0.0494   0.1315   0.0100   0.0118  -0.0243   0.00    1.8
2017/10/23 03:33:57.200  -42.880631001  147.397290853    10.1815   2  19   0.0597   0.0491   0.1307   0.0100   0.0117  -0.0241   0.20    1.8
2017/10/23 03:33:57.400  -42.880631052  147.397290779    10.1806   2  19   0.0593   0.0488   0.1299   0.0099   0.0115  -0.0239   0.40    1.8
2017/10/23 03:33:57.600  -42.880631111  147.397290733    10.1776   2  19   0.0590   0.0485   0.1291   0.0099   0.0114  -0.0237   0.60    1.8
2017/10/23 03:33:57.800  -42.880631169  147.397290684    10.1763   2  19   0.0587   0.0483   0.1283   0.0098   0.0113  -0.0234   0.80    1.8
2017/10/23 03:33:58.000  -42.880631209  147.397290624    10.1834   2  19   0.0583   0.0480   0.1276   0.0098   0.0111  -0.0232   0.00    1.8
2017/10/23 03:33:58.200  -42.880631282  147.397290588    10.1867   2  19   0.0580   0.0478   0.1268   0.0097   0.0110  -0.0230   0.20    1.8
2017/10/23 03:33:58.400  -42.880631361  147.397290554    10.1867   2  19   0.0577   0.0475   0.1261   0.0097   0.0109  -0.0228   0.40    1.8
2017/10/23 03:33:58.600  -42.880631460  147.397290504    10.1912   2  19   0.0574   0.0472   0.1254   0.0096   0.0107  -0.0226   0.60    1.7
2017/10/23 03:33:58.800  -42.880631548  147.397290482    10.1932   2  19   0.0571   0.0470   0.1247   0.0096   0.0106  -0.0225   0.80    1.7
2017/10/23 03:33:59.000  -42.880631626  147.397290440    10.1998   2  19   0.0568   0.0468   0.1239   0.0095   0.0105  -0.0223   0.00    1.7
2017/10/23 03:33:59.200  -42.880631718  147.397290427    10.2044   2  19   0.0565   0.0465   0.1232   0.0095   0.0104  -0.0221   0.20    1.7
2017/10/23 03:33:59.400  -42.880631820  147.397290409    10.2090   2  19   0.0562   0.0463   0.1226   0.0094   0.0102  -0.0219   0.40    1.7
2017/10/23 03:33:59.600  -42.880631919  147.397290383    10.2101   2  19   0.0559   0.0461   0.1219   0.0094   0.0101  -0.0217   0.60    1.7
2017/10/23 03:33:59.800  -42.880632018  147.397290360    10.2108   2  19   0.0556   0.0458   0.1212   0.0094   0.0100  -0.0215   0.80    1.7
2017/10/23 03:34:00.000  -42.880632109  147.397290335    10.2105   2  19   0.0553   0.0456   0.1206   0.0093   0.0099  -0.0213   0.00    1.7
2017/10/23 03:34:00.200  -42.880632218  147.397290273    10.2120   2  19   0.0559   0.0464   0.1213   0.0073  -0.0037  -0.0196   0.20    1.0
2017/10/23 03:34:00.400  -42.880632311  147.397290255    10.2066   2  19   0.0552   0.0457   0.1200   0.0083   0.0064  -0.0204   0.40    1.0
2017/10/23 03:34:00.600  -42.880632399  147.397290248    10.1985   2  19   0.0548   0.0453   0.1192   0.0086   0.0076  -0.0205   0.60    1.1
2017/10/23 03:34:00.800  -42.880632497  147.397290219    10.1956   2  19   0.0545   0.0450   0.1185   0.0087   0.0080  -0.0206   0.80    1.1
2017/10/23 03:34:01.000  -42.880632554  147.397290212    10.1896   2  19   0.0542   0.0447   0.1178   0.0087   0.0083  -0.0206   0.00    1.1
2017/10/23 03:34:01.200  -42.880632616  147.397290184    10.1818   2  19   0.0539   0.0445   0.1172   0.0088   0.0084  -0.0205   0.20    1.1
2017/10/23 03:34:01.400  -42.880632691  147.397290175    10.1773   2  19   0.0537   0.0443   0.1166   0.0088   0.0084  -0.0205   0.40    1.1
2017/10/23 03:34:01.600  -42.880632760  147.397290178    10.1668   2  19   0.0534   0.0441   0.1161   0.0088   0.0084  -0.0204   0.60    1.1
2017/10/23 03:34:01.800  -42.880632833  147.397290169    10.1584   2  19   0.0532   0.0438   0.1155   0.0087   0.0084  -0.0203   0.80    1.1
2017/10/23 03:34:02.000  -42.880632885  147.397290150    10.1568   2  19   0.0529   0.0436   0.1150   0.0087   0.0084  -0.0203   0.00    1.1
2017/10/23 03:34:02.200  -42.880632961  147.397290151    10.1502   2  19   0.0527   0.0434   0.1144   0.0087   0.0083  -0.0202   0.20    1.1
2017/10/23 03:34:02.400  -42.880633048  147.397290162    10.1436   2  19   0.0525   0.0432   0.1139   0.0087   0.0083  -0.0201   0.40    1.1
2017/10/23 03:34:02.600  -42.880633103  147.397290161    10.1384   2  19   0.0522   0.0430   0.1134   0.0087   0.0082  -0.0200   0.60    1.1
2017/10/23 03:34:02.800  -42.880633168  147.397290155    10.1311   2  19   0.0520   0.0429   0.1129   0.0086   0.0082  -0.0200   0.80    1.1
2017/10/23 03:34:03.000  -42.880633221  147.397290144    10.1270   2  19   0.0518   0.0427   0.1124   0.0086   0.0081  -0.0199   0.00    1.1
2017/10/23 03:34:03.200  -42.880633283  147.397290138    10.1210   2  19   0.0516   0.0425   0.1119   0.0086   0.0081  -0.0198   0.20    1.1
2017/10/23 03:34:03.400  -42.880633357  147.397290129    10.1145   2  19   0.0513   0.0423   0.1114   0.0086   0.0080  -0.0197   0.40    1.1
2017/10/23 03:34:03.600  -42.880633416  147.397290131    10.1077   2  19   0.0511   0.0421   0.1109   0.0085   0.0079  -0.0197   0.60    1.1
2017/10/23 03:34:03.800  -42.880633464  147.397290131    10.1003   2  19   0.0509   0.0420   0.1104   0.0085   0.0079  -0.0196   0.80    1.1
2017/10/23 03:34:04.000  -42.880633521  147.397290138    10.0999   2  19   0.0507   0.0418   0.1100   0.0085   0.0078  -0.0195   0.00    1.1
2017/10/23 03:34:04.200  -42.880633590  147.397290127    10.0972   2  19   0.0505   0.0416   0.1095   0.0085   0.0077  -0.0194   0.20    1.1
2017/10/23 03:34:04.400  -42.880633653  147.397290128    10.0927   2  19   0.0503   0.0414   0.1090   0.0084   0.0077  -0.0194   0.40    1.1
2017/10/23 03:34:04.600  -42.880633714  147.397290149    10.0851   2  19   0.0501   0.0413   0.1086   0.0084   0.0076  -0.0193   0.60    1.0
2017/10/23 03:34:04.800  -42.880633773  147.397290154    10.0838   2  19   0.0499   0.0411   0.1082   0.0084   0.0075  -0.0192   0.80    1.0
2017/10/23 03:34:05.000  -42.880633831  147.397290163    10.0854   2  19   0.0497   0.0409   0.1077   0.0083   0.0075  -0.0191   0.00    1.0
2017/10/23 03:34:05.200  -42.880633918  147.397290164    10.0837   2  19   0.0495   0.0408   0.1073   0.0083   0.0074  -0.0191   0.20    1.0
2017/10/23 03:34:05.400  -42.880633983  147.397290170    10.0840   2  19   0.0493   0.0406   0.1068   0.0083   0.0074  -0.0190   0.40    1.1
2017/10/23 03:34:05.600  -42.880634044  147.397290153    10.0882   2  19   0.0491   0.0405   0.1064   0.0083   0.0073  -0.0189   0.60    1.1
2017/10/23 03:34:05.800  -42.880634118  147.397290157    10.0858   2  19   0.0489   0.0403   0.1060   0.0082   0.0072  -0.0188   0.80    1.1
2017/10/23 03:34:06.000  -42.880634166  147.397290159    10.0876   2  19   0.0488   0.0402   0.1056   0.0082   0.0072  -0.0188   0.00    1.1
2017/10/23 03:34:06.200  -42.880634234  147.397290167    10.0874   2  19   0.0486   0.0400   0.1052   0.0082   0.0071  -0.0187   0.20    1.1
2017/10/23 03:34:06.400  -42.880634299  147.397290170    10.0914   2  19   0.0484   0.0399   0.1048   0.0082   0.0070  -0.0186   0.40    1.2
2017/10/23 03:34:06.600  -42.880634353  147.397290167    10.0954   2  19   0.0482   0.0397   0.1044   0.0081   0.0070  -0.0185   0.60    1.2
2017/10/23 03:34:06.800  -42.880634415  147.397290146    10.0998   2  19   0.0480   0.0396   0.1040   0.0081   0.0069  -0.0185   0.80    1.2
2017/10/23 03:34:07.000  -42.880634477  147.397290168    10.0998   2  19   0.0479   0.0394   0.1036   0.0081   0.0069  -0.0184   0.00    1.2
2017/10/23 03:34:07.200  -42.880634546  147.397290170    10.1005   2  19   0.0477   0.0393   0.1032   0.0081   0.0068  -0.0183   0.20    1.2
2017/10/23 03:34:07.400  -42.880634619  147.397290179    10.1013   2  19   0.0475   0.0391   0.1028   0.0080   0.0067  -0.0183   0.40    1.3
2017/10/23 03:34:07.600  -42.880634680  147.397290184    10.1093   2  19   0.0473   0.0390   0.1024   0.0080   0.0067  -0.0182   0.60    1.3
2017/10/23 03:34:07.800  -42.880634738  147.397290184    10.1127   2  19   0.0472   0.0389   0.1020   0.0080   0.0066  -0.0181   0.80    1.3
2017/10/23 03:34:08.000  -42.880634777  147.397290173    10.1221   2  19   0.0470   0.0387   0.1017   0.0080   0.0066  -0.0180   0.00    1.3
2017/10/23 03:34:08.200  -42.880634827  147.397290174    10.1290   2  19   0.0468   0.0386   0.1013   0.0079   0.0065  -0.0180   0.20    1.3
2017/10/23 03:34:08.400  -42.880634886  147.397290188    10.1348   2  19   0.0467   0.0385   0.1009   0.0079   0.0065  -0.0179   0.40    1.4
2017/10/23 03:34:08.600  -42.880634917  147.397290201    10.1367   2  19   0.0465   0.0383   0.1006   0.0079   0.0064  -0.0178   0.60    1.4
2017/10/23 03:34:08.800  -42.880634968  147.397290207    10.1436   2  19   0.0464   0.0382   0.1002   0.0079   0.0064  -0.0178   0.80    1.4
2017/10/23 03:34:09.000  -42.880634986  147.397290222    10.1509   2  19   0.0462   0.0381   0.0998   0.0078   0.0063  -0.0177   0.00    1.4
2017/10/23 03:34:09.200  -42.880635006  147.397290225    10.1580   2  19   0.0460   0.0379   0.0995   0.0078   0.0062  -0.0176   0.20    1.4
2017/10/23 03:34:09.400  -42.880635053  147.397290268    10.1596   2  19   0.0459   0.0378   0.0992   0.0078   0.0062  -0.0176   0.40    1.5
2017/10/23 03:34:09.600  -42.880635073  147.397290286    10.1662   2  19   0.0457   0.0377   0.0988   0.0078   0.0061  -0.0175   0.60    1.5
2017/10/23 03:34:09.800  -42.880635102  147.397290308    10.1712   2  19   0.0456   0.0376   0.0985   0.0077   0.0061  -0.0174   0.80    1.5
2017/10/23 03:34:10.000  -42.880635128  147.397290299    10.1842   2  19   0.0454   0.0374   0.0981   0.0077   0.0060  -0.0173   0.00    1.5
2017/10/23 03:34:10.200  -42.880635161  147.397290311    10.1921   2  19   0.0453   0.0373   0.0978   0.0077   0.0060  -0.0173   0.20    1.5
2017/10/23 03:34:10.400  -42.880635189  147.397290318    10.1991   2  19   0.0451   0.0372   0.0975   0.0077   0.0059  -0.0172   0.40    1.5
2017/10/23 03:34:10.600  -42.880635220  147.397290321    10.2056   2  19   0.0450   0.0371   0.0971   0.0076   0.0059  -0.0171   0.60    1.5
2017/10/23 03:34:10.800  -42.880635244  147.397290316    10.2145   2  19   0.0449   0.0370   0.0968   0.0076   0.0058  -0.0171   0.80    1.5
2017/10/23 03:34:11.000  -42.880635241  147.397290318    10.2216   2  19   0.0447   0.0368   0.0965   0.0076   0.0058  -0.0170   0.00    1.5
2017/10/23 03:34:11.200  -42.880635268  147.397290297    10.2272   2  19   0.0446   0.0367   0.0962   0.0076   0.0058  -0.0169   0.20    1.5
2017/10/23 03:34:11.400  -42.880635284  147.397290291    10.2372   2  19   0.0444   0.0366   0.0958   0.0075   0.0057  -0.0169   0.40    1.5
2017/10/23 03:34:11.600  -42.880635302  147.397290288    10.2414   2  19   0.0443   0.0365   0.0955   0.0075   0.0057  -0.0168   0.60    1.5
2017/10/23 03:34:11.800  -42.880635326  147.397290257    10.2507   2  19   0.0441   0.0364   0.0952   0.0075   0.0056  -0.0167   0.80    1.5
2017/10/23 03:34:12.000  -42.880635356  147.397290255    10.2612   2  19   0.0440   0.0363   0.0949   0.0075   0.0056  -0.0167   0.00    1.5
2017/10/23 03:34:12.200  -42.880635378  147.397290233    10.2734   2  19   0.0439   0.0361   0.0946   0.0075   0.0055  -0.0166   0.20    1.5
2017/10/23 03:34:12.400  -42.880635405  147.397290223    10.2811   2  19   0.0437   0.0360   0.0943   0.0074   0.0055  -0.0165   0.40    1.5
2017/10/23 03:34:12.600  -42.880635425  147.397290217    10.2936   2  19   0.0436   0.0359   0.0940   0.0074   0.0054  -0.0165   0.60    1.5
2017/10/23 03:34:12.800  -42.880635444  147.397290201    10.3021   2  19   0.0435   0.0358   0.0937   0.0074   0.0054  -0.0164   0.80    1.5
2017/10/23 03:34:13.000  -42.880635461  147.397290178    10.3150   2  19   0.0433   0.0357   0.0934   0.0074   0.0054  -0.0163   0.00    1.5
2017/10/23 03:34:13.200  -42.880635472  147.397290145    10.3274   2  19   0.0432   0.0356   0.0931   0.0074   0.0053  -0.0163   0.20    1.5
2017/10/23 03:34:13.400  -42.880635487  147.397290126    10.3370   2  19   0.0431   0.0355   0.0928   0.0073   0.0053  -0.0162   0.40    1.5
2017/10/23 03:34:13.600  -42.880635510  147.397290110    10.3426   2  19   0.0430   0.0354   0.0925   0.0073   0.0052  -0.0161   0.60    1.5
2017/10/23 03:34:13.800  -42.880635513  147.397290094    10.3539   2  19   0.0428   0.0353   0.0923   0.0073   0.0052  -0.0161   0.80    1.5
2017/10/23 03:34:14.000  -42.880635504  147.397290068    10.3636   2  19   0.0427   0.0352   0.0920   0.0073   0.0052  -0.0160   0.00    1.5
2017/10/23 03:34:14.200  -42.880635510  147.397290031    10.3766   2  19   0.0426   0.0351   0.0917   0.0072   0.0051  -0.0159   0.20    1.5
2017/10/23 03:34:14.400  -42.880635529  147.397290029    10.3852   2  19   0.0424   0.0350   0.0914   0.0072   0.0051  -0.0159   0.40    1.5
2017/10/23 03:34:14.600  -42.880635535  147.397290010    10.3948   2  19   0.0423   0.0349   0.0911   0.0072   0.0050  -0.0158   0.60    1.6
2017/10/23 03:34:14.800  -42.880635552  147.397289981    10.4041   2  19   0.0422   0.0348   0.0909   0.0072   0.0050  -0.0157   0.80    1.6
2017/10/23 03:34:15.000  -42.880635550  147.397289962    10.4064   2  19   0.0421   0.0347   0.0906   0.0072   0.0050  -0.0157   0.00    1.6
2017/10/23 03:34:15.200  -42.880635550  147.397289955    10.4115   2  19   0.0420   0.0346   0.0903   0.0071   0.0049  -0.0156   0.20    1.6
2017/10/23 03:34:15.400  -42.880635565  147.397289949    10.4179   2  19   0.0418   0.0345   0.0900   0.0071   0.0049  -0.0155   0.40    1.6
2017/10/23 03:34:15.600  -42.880635585  147.397289947    10.4222   2  19   0.0417   0.0344   0.0898   0.0071   0.0048  -0.0155   0.60    1.6
2017/10/23 03:34:15.800  -42.880635591  147.397289912    10.4323   2  19   0.0416   0.0343   0.0895   0.0071   0.0048  -0.0154   0.80    1.6
2017/10/23 03:34:16.000  -42.880635585  147.397289868    10.4369   2  19   0.0415   0.0342   0.0892   0.0071   0.0048  -0.0154   0.00    1.6
2017/10/23 03:34:16.200  -42.880635611  147.397289858    10.4463   2  19   0.0414   0.0341   0.0890   0.0070   0.0047  -0.0153   0.20    1.6
2017/10/23 03:34:16.400  -42.880635632  147.397289834    10.4589   2  19   0.0413   0.0340   0.0887   0.0070   0.0047  -0.0152   0.40    1.6
2017/10/23 03:34:16.600  -42.880635640  147.397289804    10.4687   2  19   0.0411   0.0339   0.0885   0.0070   0.0047  -0.0152   0.60    1.6
2017/10/23 03:34:16.800  -42.880635647  147.397289776    10.4792   2  19   0.0410   0.0339   0.0882   0.0070   0.0046  -0.0151   0.80    1.6
2017/10/23 03:34:17.000  -42.880635650  147.397289739    10.4874   2  19   0.0409   0.0338   0.0880   0.0070   0.0046  -0.0150   0.00    1.6
2017/10/23 03:34:17.200  -42.880635665  147.397289688    10.4993   2  19   0.0408   0.0337   0.0877   0.0069   0.0046  -0.0150   0.20    1.6
2017/10/23 03:34:17.400  -42.880635682  147.397289633    10.5086   2  19   0.0407   0.0336   0.0875   0.0069   0.0045  -0.0149   0.40    1.6
2017/10/23 03:34:17.600  -42.880635698  147.397289603    10.5177   2  19   0.0406   0.0335   0.0872   0.0069   0.0045  -0.0148   0.60    1.6
2017/10/23 03:34:17.800  -42.880635721  147.397289563    10.5258   2  19   0.0405   0.0334   0.0870   0.0069   0.0045  -0.0148   0.80    1.6
2017/10/23 03:34:18.000  -42.880635728  147.397289492    10.5329   2  19   0.0404   0.0333   0.0867   0.0069   0.0044  -0.0147   0.00    1.6
2017/10/23 03:34:18.200  -42.880635746  147.397289429    10.5426   2  19   0.0403   0.0332   0.0865   0.0069   0.0044  -0.0146   0.20    1.6
2017/10/23 03:34:18.400  -42.880635774  147.397289396    10.5454   2  19   0.0401   0.0332   0.0862   0.0068   0.0044  -0.0146   0.40    1.6
2017/10/23 03:34:18.600  -42.880635785  147.397289339    10.5534   2  19   0.0400   0.0331   0.0860   0.0068   0.0043  -0.0145   0.60    1.6
2017/10/23 03:34:18.800  -42.880635806  147.397289284    10.5618   2  19   0.0399   0.0330   0.0858   0.0068   0.0043  -0.0144   0.80    1.6
2017/10/23 03:34:19.000  -42.880635817  147.397289229    10.5658   2  19   0.0398   0.0329   0.0855   0.0068   0.0043  -0.0144   0.00    1.6
2017/10/23 03:34:19.200  -42.880635827  147.397289182    10.5685   2  19   0.0397   0.0328   0.0853   0.0068   0.0043  -0.0143   0.20    1.6
2017/10/23 03:34:19.400  -42.880635843  147.397289141    10.5711   2  19   0.0396   0.0327   0.0851   0.0067   0.0042  -0.0142   0.40    1.6
2017/10/23 03:34:19.600  -42.880635856  147.397289097    10.5745   2  19   0.0395   0.0327   0.0848   0.0067   0.0042  -0.0142   0.60    1.6
2017/10/23 03:34:19.800  -42.880635857  147.397289035    10.5791   2  19   0.0394   0.0326   0.0846   0.0067   0.0042  -0.0141   0.80    1.6
2017/10/23 03:34:20.000  -42.880635861  147.397289006    10.5809   2  19   0.0393   0.0325   0.0844   0.0067   0.0041  -0.0140   0.00    1.6
2017/10/23 03:34:20.200  -42.880635869  147.397288958    10.5845   2  19   0.0392   0.0324   0.0841   0.0067   0.0041  -0.0140   0.20    1.6
2017/10/23 03:34:20.400  -42.880635880  147.397288903    10.5876   2  19   0.0391   0.0323   0.0839   0.0067   0.0041  -0.0139   0.40    1.6
2017/10/23 03:34:20.600  -42.880635882  147.397288843    10.5928   2  19   0.0390   0.0323   0.0837   0.0066   0.0041  -0.0139   0.60    1.6
2017/10/23 03:34:20.800  -42.880635910  147.397288820    10.5958   2  19   0.0389   0.0322   0.0835   0.0066   0.0040  -0.0138   0.80    1.6
2017/10/23 03:34:21.000  -42.880635887  147.397288745    10.6010   2  19   0.0388   0.0321   0.0832   0.0066   0.0040  -0.0137   0.00    1.6
2017/10/23 03:34:21.200  -42.880635910  147.397288691    10.6013   2  19   0.0387   0.0320   0.0830   0.0066   0.0040  -0.0137   0.20    1.6
2017/10/23 03:34:21.400  -42.880635915  147.397288624    10.6070   2  19   0.0386   0.0319   0.0828   0.0066   0.0039  -0.0136   0.40    1.6
2017/10/23 03:34:21.600  -42.880635928  147.397288569    10.6082   2  19   0.0385   0.0319   0.0826   0.0065   0.0039  -0.0135   0.60    1.6
2017/10/23 03:34:21.800  -42.880635939  147.397288518    10.6090   2  19   0.0384   0.0318   0.0824   0.0065   0.0039  -0.0135   0.80    1.6
2017/10/23 03:34:22.000  -42.880635952  147.397288473    10.6142   2  19   0.0383   0.0317   0.0822   0.0065   0.0039  -0.0134   0.00    1.6
2017/10/23 03:34:22.200  -42.880635971  147.397288394    10.6171   2  19   0.0382   0.0316   0.0819   0.0065   0.0038  -0.0133   0.20    1.6
2017/10/23 03:34:22.400  -42.880635999  147.397288331    10.6206   2  19   0.0381   0.0316   0.0817   0.0065   0.0038  -0.0133   0.40    1.6
2017/10/23 03:34:22.600  -42.880636011  147.397288275    10.6219   2  19   0.0381   0.0315   0.0815   0.0065   0.0038  -0.0132   0.60    1.6
2017/10/23 03:34:22.800  -42.880636038  147.397288208    10.6246   2  19   0.0380   0.0314   0.0813   0.0064   0.0038  -0.0131   0.80    1.6
2017/10/23 03:34:23.000  -42.880636049  147.397288126    10.6325   2  19   0.0379   0.0314   0.0811   0.0064   0.0037  -0.0131   0.00    1.6
2017/10/23 03:34:23.200  -42.880636071  147.397288054    10.6421   2  19   0.0378   0.0313   0.0809   0.0064   0.0037  -0.0130   0.20    1.6
2017/10/23 03:34:23.400  -42.880636115  147.397288005    10.6448   2  19   0.0377   0.0312   0.0807   0.0064   0.0037  -0.0129   0.40    1.5
2017/10/23 03:34:23.600  -42.880636151  147.397287937    10.6495   2  19   0.0376   0.0311   0.0805   0.0064   0.0037  -0.0129   0.60    1.5
2017/10/23 03:34:23.800  -42.880636180  147.397287864    10.6540   2  19   0.0375   0.0311   0.0803   0.0064   0.0036  -0.0128   0.80    1.5
2017/10/23 03:34:24.000  -42.880636193  147.397287810    10.6653   2  19   0.0374   0.0310   0.0801   0.0063   0.0036  -0.0127   0.00    1.5
2017/10/23 03:34:24.200  -42.880636221  147.397287725    10.6706   2  19   0.0373   0.0309   0.0799   0.0063   0.0036  -0.0127   0.20    1.5
2017/10/23 03:34:24.400  -42.880636256  147.397287654    10.6783   2  19   0.0372   0.0309   0.0797   0.0063   0.0036  -0.0126   0.40    1.5
2017/10/23 03:34:24.600  -42.880636289  147.397287585    10.6835   2  19   0.0372   0.0308   0.0795   0.0063   0.0035  -0.0125   0.60    1.5
2017/10/23 03:34:24.800  -42.880636321  147.397287528    10.6879   2  19   0.0371   0.0307   0.0793   0.0063   0.0035  -0.0125   0.80    1.5
2017/10/23 03:34:25.000  -42.880636340  147.397287455    10.6984   2  19   0.0370   0.0307   0.0791   0.0063   0.0035  -0.0124   0.00    1.5
2017/10/23 03:34:25.200  -42.880636375  147.397287370    10.7030   2  19   0.0369   0.0306   0.0789   0.0062   0.0035  -0.0123   0.20    1.5
2017/10/23 03:34:25.400  -42.880636403  147.397287303    10.7149   2  19   0.0368   0.0305   0.0787   0.0062   0.0035  -0.0123   0.40    1.5
2017/10/23 03:34:25.600  -42.880636446  147.397287224    10.7203   2  19   0.0367   0.0305   0.0785   0.0062   0.0034  -0.0122   0.60    1.5
2017/10/23 03:34:25.800  -42.880636492  147.397287166    10.7210   2  19   0.0366   0.0304   0.0783   0.0062   0.0034  -0.0121   0.80    1.5
2017/10/23 03:34:26.000  -42.880636506  147.397287072    10.7354   2  19   0.0365   0.0303   0.0781   0.0062   0.0034  -0.0121   0.00    1.5
2017/10/23 03:34:26.200  -42.880636523  147.397286966    10.7515   2  19   0.0365   0.0303   0.0779   0.0062   0.0034  -0.0120   0.20    1.5
2017/10/23 03:34:26.400  -42.880636551  147.397286897    10.7606   2  19   0.0364   0.0302   0.0777   0.0062   0.0033  -0.0119   0.40    1.5
2017/10/23 03:34:26.600  -42.880636582  147.397286831    10.7676   2  19   0.0363   0.0301   0.0776   0.0061   0.0033  -0.0119   0.60    1.5
2017/10/23 03:34:26.800  -42.880636611  147.397286753    10.7811   2  19   0.0362   0.0301   0.0774   0.0061   0.0033  -0.0118   0.80    1.4
2017/10/23 03:34:27.000  -42.880636635  147.397286694    10.7821   2  19   0.0361   0.0300   0.0772   0.0061   0.0033  -0.0117   0.00    1.4
2017/10/23 03:34:27.200  -42.880636667  147.397286657    10.7882   2  19   0.0360   0.0299   0.0770   0.0061   0.0033  -0.0116   0.20    1.4
2017/10/23 03:34:27.400  -42.880636699  147.397286600    10.7943   2  19   0.0360   0.0299   0.0768   0.0061   0.0032  -0.0116   0.40    1.4
2017/10/23 03:34:27.600  -42.880636733  147.397286550    10.8027   2  19   0.0359   0.0298   0.0766   0.0061   0.0032  -0.0115   0.60    1.4
2017/10/23 03:34:27.800  -42.880636762  147.397286496    10.8114   2  19   0.0358   0.0298   0.0765   0.0060   0.0032  -0.0114   0.80    1.4
2017/10/23 03:34:28.000  -42.880636771  147.397286435    10.8173   2  19   0.0357   0.0297   0.0763   0.0060   0.0032  -0.0114   0.00    1.4
2017/10/23 03:34:28.200  -42.880636800  147.397286387    10.8236   2  19   0.0356   0.0296   0.0761   0.0060   0.0032  -0.0113   0.20    1.4
2017/10/23 03:34:28.400  -42.880636813  147.397286353    10.8291   2  20   0.0355   0.0296   0.0759   0.0059   0.0033  -0.0112   0.40    1.0
2017/10/23 03:34:28.600  -42.880636813  147.397286350    10.8300   2  20   0.0354   0.0295   0.0757   0.0057   0.0035  -0.0109   0.60    1.1
2017/10/23 03:34:28.800  -42.880636823  147.397286374    10.8270   2  20   0.0353   0.0294   0.0755   0.0055   0.0037  -0.0108   0.80    1.1
2017/10/23 03:34:29.000  -42.880636827  147.397286351    10.8291   2  20   0.0352   0.0293   0.0753   0.0054   0.0037  -0.0106   0.00    1.1
2017/10/23 03:34:29.200  -42.880636837  147.397286354    10.8308   2  20   0.0351   0.0293   0.0751   0.0053   0.0038  -0.0105   0.20    1.1
2017/10/23 03:34:29.400  -42.880636838  147.397286362    10.8301   2  20   0.0350   0.0292   0.0750   0.0052   0.0039  -0.0104   0.40    1.2
2017/10/23 03:34:29.600  -42.880636865  147.397286396    10.8243   2  20   0.0349   0.0291   0.0748   0.0051   0.0039  -0.0102   0.60    1.2
2017/10/23 03:34:29.800  -42.880636869  147.397286429    10.8208   2  20   0.0348   0.0291   0.0746   0.0050   0.0040  -0.0101   0.80    1.2
2017/10/23 03:34:30.000  -42.880636855  147.397286443    10.8177   2  20   0.0347   0.0290   0.0744   0.0049   0.0041  -0.0100   0.00    1.2
2017/10/23 03:34:30.200  -42.880636855  147.397286451    10.8189   2  20   0.0346   0.0289   0.0743   0.0048   0.0041  -0.0099   0.20    1.3
2017/10/23 03:34:30.400  -42.880636876  147.397286442    10.8228   2  20   0.0345   0.0289   0.0741   0.0047   0.0042  -0.0097   0.40    1.3
2017/10/23 03:34:30.600  -42.880636893  147.397286469    10.8209   2  20   0.0344   0.0288   0.0739   0.0046   0.0042  -0.0096   0.60    1.3
2017/10/23 03:34:30.800  -42.880636893  147.397286461    10.8270   2  20   0.0343   0.0288   0.0738   0.0045   0.0042  -0.0095   0.80    1.3
2017/10/23 03:34:31.000  -42.880636869  147.397286436    10.8336   2  20   0.0342   0.0287   0.0736   0.0044   0.0043  -0.0094   0.00    1.4
2017/10/23 03:34:31.200  -42.880636878  147.397286424    10.8372   2  20   0.0341   0.0286   0.0734   0.0043   0.0043  -0.0092   0.20    1.4
2017/10/23 03:34:31.400  -42.880636882  147.397286438    10.8390   2  20   0.0340   0.0286   0.0732   0.0042   0.0044  -0.0091   0.40    1.4
2017/10/23 03:34:31.600  -42.880636889  147.397286449    10.8422   2  20   0.0339   0.0285   0.0731   0.0041   0.0044  -0.0090   0.60    1.4
2017/10/23 03:34:31.800  -42.880636882  147.397286454    10.8440   2  20   0.0338   0.0284   0.0729   0.0040   0.0044  -0.0089   0.80    1.4
2017/10/23 03:34:32.000  -42.880636880  147.397286454    10.8511   2  20   0.0337   0.0284   0.0727   0.0039   0.0045  -0.0088   0.00    1.4
2017/10/23 03:34:32.200  -42.880636881  147.397286463    10.8563   2  20   0.0336   0.0283   0.0725   0.0038   0.0045  -0.0086   0.20    1.4
2017/10/23 03:34:32.400  -42.880636900  147.397286504    10.8562   2  20   0.0336   0.0283   0.0724   0.0037   0.0045  -0.0085   0.40    1.4
2017/10/23 03:34:32.600  -42.880636907  147.397286515    10.8601   2  20   0.0335   0.0282   0.0722   0.0036   0.0046  -0.0084   0.60    1.4
2017/10/23 03:34:32.800  -42.880636912  147.397286541    10.8650   2  20   0.0334   0.0282   0.0721   0.0035   0.0046  -0.0083   0.80    1.4
2017/10/23 03:34:33.000  -42.880636911  147.397286564    10.8656   2  20   0.0333   0.0281   0.0719   0.0034   0.0046  -0.0081   0.00    1.4
2017/10/23 03:34:33.200  -42.880636924  147.397286605    10.8676   2  20   0.0332   0.0280   0.0717   0.0033   0.0046  -0.0080   0.20    1.4
2017/10/23 03:34:33.400  -42.880636937  147.397286651    10.8677   2  20   0.0331   0.0280   0.0716   0.0032   0.0047  -0.0079   0.40    1.4
2017/10/23 03:34:33.600  -42.880636956  147.397286707    10.8656   2  20   0.0330   0.0279   0.0714   0.0031   0.0047  -0.0078   0.60    1.4
2017/10/23 03:34:33.800  -42.880636952  147.397286756    10.8684   2  20   0.0330   0.0279   0.0713   0.0030   0.0047  -0.0076   0.80    1.4
2017/10/23 03:34:34.000  -42.880636944  147.397286787    10.8739   2  20   0.0329   0.0278   0.0711   0.0029   0.0047  -0.0075   0.00    1.4
2017/10/23 03:34:34.200  -42.880636952  147.397286835    10.8777   2  20   0.0328   0.0277   0.0709   0.0028   0.0048  -0.0074   0.20    1.4
2017/10/23 03:34:34.400  -42.880636948  147.397286872    10.8837   2  20   0.0327   0.0277   0.0708   0.0027   0.0048  -0.0072   0.40    1.4
2017/10/23 03:34:34.600  -42.880636966  147.397286913    10.8864   2  20   0.0326   0.0276   0.0706   0.0026   0.0048  -0.0071   0.60    1.4
2017/10/23 03:34:34.800  -42.880636965  147.397286935    10.8924   2  19   0.0326   0.0276   0.0706   0.0019   0.0041  -0.0066   0.80    1.1
2017/10/23 03:34:35.000  -42.880636938  147.397286932    10.9095   2  19   0.0325   0.0276   0.0704   0.0018   0.0041  -0.0064   0.00    1.1
2017/10/23 03:34:35.200  -42.880636947  147.397286959    10.9150   2  19   0.0324   0.0275   0.0703   0.0015   0.0040  -0.0063   0.20    1.1
2017/10/23 03:34:35.400  -42.880636935  147.397286973    10.9251   2  19   0.0323   0.0275   0.0701   0.0013   0.0039  -0.0061   0.40    1.1
2017/10/23 03:34:35.600  -42.880636933  147.397286998    10.9320   2  19   0.0323   0.0274   0.0700   0.0009   0.0039  -0.0059   0.60    1.1
2017/10/23 03:34:35.800  -42.880636921  147.397287024    10.9390   2  19   0.0322   0.0274   0.0699   0.0003   0.0038  -0.0058   0.80    1.1
2017/10/23 03:34:36.000  -42.880636903  147.397287048    10.9524   2  19   0.0321   0.0273   0.0697  -0.0007   0.0037  -0.0056   0.00    1.1
2017/10/23 03:34:36.200  -42.880636884  147.397287085    10.9594   2  19   0.0320   0.0273   0.0696  -0.0011   0.0037  -0.0054   0.20    1.0
2017/10/23 03:34:36.400  -42.880636882  147.397287140    10.9659   2  19   0.0320   0.0272   0.0695  -0.0013   0.0036  -0.0052   0.40    1.0
2017/10/23 03:34:36.600  -42.880636860  147.397287173    10.9736   2  19   0.0319   0.0272   0.0693  -0.0016   0.0035  -0.0050   0.60    1.0
2017/10/23 03:34:36.800  -42.880636856  147.397287216    10.9796   2  19   0.0318   0.0271   0.0692  -0.0018   0.0035  -0.0049   0.80    1.0
2017/10/23 03:34:37.000  -42.880636820  147.397287225    10.9889   2  19   0.0317   0.0271   0.0691  -0.0019   0.0034  -0.0047   0.00    1.0
2017/10/23 03:34:37.200  -42.880636809  147.397287252    10.9980   2  19   0.0317   0.0270   0.0689  -0.0021   0.0033  -0.0044   0.20    1.0
2017/10/23 03:34:37.400  -42.880636789  147.397287298    11.0032   2  19   0.0316   0.0270   0.0688  -0.0022   0.0032  -0.0042   0.40    1.0
2017/10/23 03:34:37.600  -42.880636781  147.397287343    11.0125   2  19   0.0315   0.0270   0.0687  -0.0024   0.0032  -0.0040   0.60    1.0
2017/10/23 03:34:37.800  -42.880636773  147.397287378    11.0200   2  19   0.0315   0.0269   0.0686  -0.0025   0.0031  -0.0038   0.80    1.0
2017/10/23 03:34:38.000  -42.880636754  147.397287408    11.0274   2  19   0.0314   0.0269   0.0684  -0.0026   0.0030  -0.0035   0.00    1.0
2017/10/23 03:34:38.200  -42.880636752  147.397287451    11.0359   2  19   0.0313   0.0268   0.0683  -0.0027   0.0029  -0.0033   0.20    1.0
2017/10/23 03:34:38.400  -42.880636733  147.397287497    11.0427   2  19   0.0312   0.0268   0.0682  -0.0028   0.0029  -0.0030   0.40    1.0
2017/10/23 03:34:38.600  -42.880636740  147.397287576    11.0415   2  20   0.0312   0.0267   0.0680  -0.0029   0.0029  -0.0027   0.60    1.0
2017/10/23 03:34:38.800  -42.880636740  147.397287640    11.0498   2  19   0.0311   0.0267   0.0679  -0.0030   0.0028  -0.0024   0.80    1.0
2017/10/23 03:34:39.000  -42.880636708  147.397287638    11.0557   2  19   0.0310   0.0266   0.0678  -0.0031   0.0027  -0.0020   0.00    1.0
2017/10/23 03:34:39.200  -42.880636688  147.397287680    11.0636   2  19   0.0310   0.0266   0.0676  -0.0032   0.0026  -0.0015   0.20    1.0
2017/10/23 03:34:39.400  -42.880636684  147.397287744    11.0644   2  19   0.0309   0.0265   0.0675  -0.0032   0.0026  -0.0008   0.40    1.0
2017/10/23 03:34:39.600  -42.880636667  147.397287791    11.0710   2  19   0.0308   0.0265   0.0674  -0.0033   0.0025   0.0010   0.60    1.0
2017/10/23 03:34:39.800  -42.880636642  147.397287812    11.0778   2  19   0.0308   0.0265   0.0673  -0.0034   0.0024   0.0016   0.80    1.0
2017/10/23 03:34:40.000  -42.880636626  147.397287834    11.0832   2  19   0.0307   0.0264   0.0671  -0.0035   0.0023   0.0021   0.00    1.0
2017/10/23 03:34:40.200  -42.880636619  147.397287914    11.0847   2  19   0.0306   0.0264   0.0670  -0.0035   0.0022   0.0024   0.20    1.0
2017/10/23 03:34:40.400  -42.880636598  147.397287969    11.0905   2  19   0.0305   0.0263   0.0669  -0.0036   0.0021   0.0028   0.40    1.0
2017/10/23 03:34:40.600  -42.880636571  147.397288007    11.0971   2  19   0.0305   0.0263   0.0668  -0.0037   0.0020   0.0030   0.60    1.0
2017/10/23 03:34:40.800  -42.880636557  147.397288049    11.1014   2  19   0.0304   0.0262   0.0667  -0.0037   0.0019   0.0033   0.80    1.0
2017/10/23 03:34:41.000  -42.880636532  147.397288095    11.1063   2  19   0.0303   0.0262   0.0665  -0.0038   0.0018   0.0035   0.00    1.0
2017/10/23 03:34:41.200  -42.880636514  147.397288126    11.1157   2  19   0.0303   0.0261   0.0664  -0.0039   0.0016   0.0037   0.20    1.0
2017/10/23 03:34:41.400  -42.880636504  147.397288177    11.1228   2  19   0.0302   0.0261   0.0663  -0.0039   0.0015   0.0039   0.40    1.1
2017/10/23 03:34:41.600  -42.880636482  147.397288232    11.1272   2  19   0.0302   0.0261   0.0662  -0.0040   0.0013   0.0041   0.60    1.1
2017/10/23 03:34:41.800  -42.880636475  147.397288282    11.1265   2  19   0.0301   0.0260   0.0660  -0.0040   0.0012   0.0043   0.80    1.1
2017/10/23 03:34:42.000  -42.880636466  147.397288338    11.1303   2  19   0.0300   0.0260   0.0659  -0.0041   0.0010   0.0045   0.00    1.1
2017/10/23 03:34:42.200  -42.880636450  147.397288389    11.1320   2  19   0.0300   0.0259   0.0658  -0.0041   0.0008   0.0046   0.20    1.1
2017/10/23 03:34:42.400  -42.880636420  147.397288415    11.1357   2  19   0.0299   0.0259   0.0657  -0.0042   0.0004   0.0048   0.40    1.1
2017/10/23 03:34:42.600  -42.880636412  147.397288485    11.1377   2  19   0.0298   0.0259   0.0656  -0.0042  -0.0005   0.0049   0.60    1.1
2017/10/23 03:34:42.800  -42.880636399  147.397288529    11.1402   2  19   0.0298   0.0258   0.0654  -0.0043  -0.0008   0.0051   0.80    1.1
2017/10/23 03:34:43.000  -42.880636367  147.397288570    11.1462   2  19   0.0297   0.0258   0.0653  -0.0043  -0.0010   0.0052   0.00    1.1
2017/10/23 03:34:43.200  -42.880636351  147.397288607    11.1504   2  19   0.0297   0.0257   0.0652  -0.0044  -0.0012   0.0054   0.20    1.1
2017/10/23 03:34:43.400  -42.880636348  147.397288660    11.1544   2  19   0.0296   0.0257   0.0651  -0.0044  -0.0013   0.0055   0.40    1.1
2017/10/23 03:34:43.600  -42.880636329  147.397288708    11.1571   2  19   0.0295   0.0257   0.0650  -0.0045  -0.0015   0.0056   0.60    1.1
2017/10/23 03:34:43.800  -42.880636332  147.397288780    11.1583   2  19   0.0295   0.0256   0.0649  -0.0045  -0.0016   0.0057   0.80    1.1
2017/10/23 03:34:44.000  -42.880636293  147.397288805    11.1647   2  19   0.0294   0.0256   0.0647  -0.0045  -0.0017   0.0058   0.00    1.1
2017/10/23 03:34:44.200  -42.880636278  147.397288856    11.1637   2  19   0.0294   0.0255   0.0646  -0.0046  -0.0018   0.0060   0.20    1.1
2017/10/23 03:34:44.400  -42.880636273  147.397288917    11.1627   2  19   0.0293   0.0255   0.0645  -0.0046  -0.0019   0.0061   0.40    1.1
2017/10/23 03:34:44.600  -42.880636268  147.397288973    11.1624   2  19   0.0292   0.0255   0.0644  -0.0047  -0.0020   0.0062   0.60    1.1
2017/10/23 03:34:44.800  -42.880636250  147.397289027    11.1630   2  19   0.0292   0.0254   0.0643  -0.0047  -0.0021   0.0063   0.80    1.1
2017/10/23 03:34:45.000  -42.880636246  147.397289094    11.1666   2  19   0.0291   0.0254   0.0642  -0.0047  -0.0022   0.0064   0.00    1.1
2017/10/23 03:34:45.200  -42.880636226  147.397289131    11.1699   2  19   0.0291   0.0253   0.0640  -0.0048  -0.0023   0.0065   0.20    1.1
2017/10/23 03:34:45.400  -42.880636196  147.397289175    11.1714   2  19   0.0290   0.0253   0.0639  -0.0048  -0.0023   0.0066   0.40    1.1
2017/10/23 03:34:45.600  -42.880636191  147.397289217    11.1726   2  19   0.0289   0.0253   0.0638  -0.0048  -0.0024   0.0067   0.60    1.1
2017/10/23 03:34:45.800  -42.880636169  147.397289287    11.1751   2  19   0.0289   0.0252   0.0637  -0.0049  -0.0025   0.0068   0.80    1.1
2017/10/23 03:34:46.000  -42.880636139  147.397289322    11.1764   2  19   0.0288   0.0252   0.0636  -0.0049  -0.0025   0.0069   0.00    1.1
2017/10/23 03:34:46.200  -42.880636125  147.397289362    11.1788   2  19   0.0288   0.0252   0.0635  -0.0049  -0.0026   0.0070   0.20    1.1
2017/10/23 03:34:46.400  -42.880636093  147.397289404    11.1791   2  19   0.0287   0.0251   0.0634  -0.0050  -0.0027   0.0071   0.40    1.2
2017/10/23 03:34:46.600  -42.880636078  147.397289462    11.1772   2  19   0.0287   0.0251   0.0633  -0.0050  -0.0027   0.0071   0.60    1.2
2017/10/23 03:34:46.800  -42.880636050  147.397289509    11.1784   2  19   0.0286   0.0250   0.0632  -0.0050  -0.0028   0.0072   0.80    1.2
2017/10/23 03:34:47.000  -42.880636038  147.397289588    11.1773   2  19   0.0285   0.0250   0.0630  -0.0051  -0.0029   0.0073   0.00    1.2
2017/10/23 03:34:47.200  -42.880636013  147.397289625    11.1807   2  19   0.0285   0.0250   0.0629  -0.0051  -0.0029   0.0074   0.20    1.2
2017/10/23 03:34:47.400  -42.880635995  147.397289681    11.1801   2  19   0.0284   0.0249   0.0628  -0.0051  -0.0030   0.0075   0.40    1.2
2017/10/23 03:34:47.600  -42.880635970  147.397289747    11.1806   2  19   0.0284   0.0249   0.0627  -0.0052  -0.0030   0.0075   0.60    1.2
2017/10/23 03:34:47.800  -42.880635945  147.397289785    11.1788   2  19   0.0283   0.0249   0.0626  -0.0052  -0.0031   0.0076   0.80    1.2
2017/10/23 03:34:48.000  -42.880635914  147.397289829    11.1847   2  19   0.0283   0.0248   0.0625  -0.0052  -0.0031   0.0077   0.00    1.2
2017/10/23 03:34:48.200  -42.880635883  147.397289855    11.1846   2  19   0.0282   0.0248   0.0624  -0.0052  -0.0032   0.0078   0.20    1.2
2017/10/23 03:34:48.400  -42.880635855  147.397289908    11.1880   2  19   0.0282   0.0248   0.0623  -0.0053  -0.0032   0.0078   0.40    1.2
2017/10/23 03:34:48.600  -42.880635843  147.397289972    11.1853   2  19   0.0281   0.0247   0.0622  -0.0053  -0.0033   0.0079   0.60    1.2
2017/10/23 03:34:48.800  -42.880635804  147.397290001    11.1860   2  19   0.0281   0.0247   0.0621  -0.0053  -0.0033   0.0080   0.80    1.2
2017/10/23 03:34:49.000  -42.880635785  147.397290049    11.1891   2  19   0.0280   0.0246   0.0620  -0.0053  -0.0034   0.0081   0.00    1.2
2017/10/23 03:34:49.200  -42.880635782  147.397290107    11.1858   2  19   0.0280   0.0246   0.0618  -0.0054  -0.0034   0.0081   0.20    1.2
2017/10/23 03:34:49.400  -42.880635759  147.397290150    11.1905   2  19   0.0279   0.0246   0.0617  -0.0054  -0.0035   0.0082   0.40    1.2
2017/10/23 03:34:49.600  -42.880635739  147.397290200    11.1892   2  19   0.0279   0.0245   0.0616  -0.0054  -0.0035   0.0083   0.60    1.2
2017/10/23 03:34:49.800  -42.880635715  147.397290236    11.1923   2  19   0.0278   0.0245   0.0616  -0.0054  -0.0036   0.0083   0.80    1.2
2017/10/23 03:34:50.000  -42.880635680  147.397290292    11.1934   2  19   0.0277   0.0245   0.0614  -0.0054  -0.0036   0.0084   0.00    1.2
2017/10/23 03:34:50.200  -42.880635660  147.397290322    11.1958   2  19   0.0277   0.0244   0.0613  -0.0055  -0.0036   0.0084   0.20    1.2
2017/10/23 03:34:50.400  -42.880635631  147.397290395    11.1932   2  19   0.0276   0.0244   0.0612  -0.0055  -0.0037   0.0085   0.40    1.2
2017/10/23 03:34:50.600  -42.880635620  147.397290444    11.1936   2  19   0.0276   0.0244   0.0611  -0.0055  -0.0037   0.0086   0.60    1.3
2017/10/23 03:34:50.800  -42.880635608  147.397290485    11.1936   2  19   0.0275   0.0243   0.0610  -0.0055  -0.0038   0.0086   0.80    1.3
2017/10/23 03:34:51.000  -42.880635566  147.397290519    11.1959   2  19   0.0275   0.0243   0.0609  -0.0056  -0.0038   0.0087   0.00    1.3
2017/10/23 03:34:51.200  -42.880635557  147.397290574    11.1950   2  19   0.0274   0.0243   0.0608  -0.0056  -0.0038   0.0087   0.20    1.3
2017/10/23 03:34:51.400  -42.880635526  147.397290618    11.1975   2  19   0.0274   0.0242   0.0607  -0.0056  -0.0039   0.0088   0.40    1.3
2017/10/23 03:34:51.600  -42.880635510  147.397290662    11.1970   2  19   0.0273   0.0242   0.0606  -0.0056  -0.0039   0.0089   0.60    1.3
2017/10/23 03:34:51.800  -42.880635497  147.397290694    11.1930   2  19   0.0273   0.0242   0.0605  -0.0056  -0.0039   0.0089   0.80    1.3
2017/10/23 03:34:52.000  -42.880635468  147.397290744    11.1924   2  19   0.0272   0.0241   0.0604  -0.0056  -0.0040   0.0090   0.00    1.3
2017/10/23 03:34:52.200  -42.880635438  147.397290786    11.1972   2  19   0.0272   0.0241   0.0603  -0.0057  -0.0040   0.0090   0.20    1.3
2017/10/23 03:34:52.400  -42.880635410  147.397290823    11.1944   2  19   0.0271   0.0241   0.0602  -0.0057  -0.0040   0.0091   0.40    1.3
2017/10/23 03:34:52.600  -42.880635393  147.397290866    11.1916   2  19   0.0271   0.0240   0.0601  -0.0057  -0.0041   0.0091   0.60    1.3
2017/10/23 03:34:52.800  -42.880635365  147.397290888    11.1938   2  19   0.0271   0.0240   0.0600  -0.0057  -0.0041   0.0092   0.80    1.3
2017/10/23 03:34:53.000  -42.880635341  147.397290943    11.1951   2  19   0.0270   0.0240   0.0599  -0.0057  -0.0041   0.0092   0.00    1.3
2017/10/23 03:34:53.200  -42.880635313  147.397290975    11.2008   2  19   0.0269   0.0239   0.0598  -0.0058  -0.0042   0.0093   0.20    1.3
2017/10/23 03:34:53.400  -42.880635287  147.397291016    11.1969   2  19   0.0269   0.0239   0.0597  -0.0058  -0.0042   0.0093   0.40    1.3
2017/10/23 03:34:53.600  -42.880635248  147.397291065    11.2002   2  19   0.0269   0.0239   0.0596  -0.0058  -0.0042   0.0094   0.60    1.3
2017/10/23 03:34:53.800  -42.880635222  147.397291088    11.2004   2  19   0.0268   0.0238   0.0595  -0.0058  -0.0043   0.0094   0.80    1.3
2017/10/23 03:34:54.000  -42.880635192  147.397291121    11.2048   2  19   0.0268   0.0238   0.0594  -0.0058  -0.0043   0.0095   0.00    1.3
2017/10/23 03:34:54.200  -42.880635174  147.397291160    11.2002   2  19   0.0267   0.0238   0.0593  -0.0058  -0.0043   0.0095   0.20    1.3
2017/10/23 03:34:54.400  -42.880635135  147.397291191    11.2056   2  19   0.0267   0.0237   0.0592  -0.0058  -0.0043   0.0096   0.40    1.3
2017/10/23 03:34:54.600  -42.880635103  147.397291216    11.2070   2  19   0.0266   0.0237   0.0591  -0.0059  -0.0044   0.0096   0.60    1.3
2017/10/23 03:34:54.800  -42.880635084  147.397291253    11.2055   2  19   0.0266   0.0237   0.0590  -0.0059  -0.0044   0.0097   0.80    1.3
2017/10/23 03:34:55.000  -42.880635075  147.397291295    11.2056   2  19   0.0265   0.0236   0.0589  -0.0059  -0.0044   0.0097   0.00    1.4
2017/10/23 03:34:55.200  -42.880635048  147.397291330    11.2072   2  19   0.0265   0.0236   0.0588  -0.0059  -0.0045   0.0097   0.20    1.4
2017/10/23 03:34:55.400  -42.880635016  147.397291354    11.2075   2  19   0.0264   0.0236   0.0587  -0.0059  -0.0045   0.0098   0.40    1.4
2017/10/23 03:34:55.600  -42.880634999  147.397291382    11.2071   2  19   0.0264   0.0236   0.0586  -0.0059  -0.0045   0.0098   0.60    1.4
2017/10/23 03:34:55.800  -42.880634965  147.397291394    11.2088   2  19   0.0264   0.0235   0.0585  -0.0060  -0.0045   0.0099   0.80    1.4
2017/10/23 03:34:56.000  -42.880634942  147.397291436    11.2011   2  19   0.0263   0.0235   0.0584  -0.0060  -0.0046   0.0099   0.00    1.4
2017/10/23 03:34:56.200  -42.880634915  147.397291463    11.1991   2  19   0.0263   0.0235   0.0583  -0.0060  -0.0046   0.0100   0.20    1.4
2017/10/23 03:34:56.400  -42.880634904  147.397291501    11.1943   2  19   0.0262   0.0234   0.0582  -0.0060  -0.0046   0.0100   0.40    1.4
2017/10/23 03:34:56.600  -42.880634873  147.397291524    11.1954   2  19   0.0262   0.0234   0.0582  -0.0060  -0.0046   0.0100   0.60    1.4
2017/10/23 03:34:56.800  -42.880634862  147.397291576    11.1876   2  19   0.0261   0.0234   0.0581  -0.0060  -0.0047   0.0101   0.80    1.4
2017/10/23 03:34:57.000  -42.880634815  147.397291579    11.1893   2  19   0.0261   0.0233   0.0580  -0.0060  -0.0047   0.0101   0.00    1.4
2017/10/23 03:34:57.200  -42.880634801  147.397291631    11.1832   2  19   0.0260   0.0233   0.0579  -0.0060  -0.0047   0.0102   0.20    1.4
2017/10/23 03:34:57.400  -42.880634770  147.397291650    11.1832   2  19   0.0260   0.0233   0.0578  -0.0060  -0.0047   0.0102   0.40    1.4
2017/10/23 03:34:57.600  -42.880634752  147.397291682    11.1774   2  19   0.0259   0.0233   0.0577  -0.0061  -0.0048   0.0102   0.60    1.4
2017/10/23 03:34:57.800  -42.880634724  147.397291708    11.1761   2  19   0.0259   0.0232   0.0576  -0.0061  -0.0048   0.0103   0.80    1.4
2017/10/23 03:34:58.000  -42.880634694  147.397291745    11.1781   2  19   0.0259   0.0232   0.0575  -0.0061  -0.0048   0.0103   0.00    1.4
2017/10/23 03:34:58.200  -42.880634673  147.397291761    11.1727   2  19   0.0258   0.0232   0.0574  -0.0061  -0.0048   0.0103   0.20    1.4
2017/10/23 03:34:58.400  -42.880634646  147.397291809    11.1698   2  19   0.0258   0.0231   0.0573  -0.0061  -0.0049   0.0104   0.40    1.4
2017/10/23 03:34:58.600  -42.880634632  147.397291837    11.1669   2  19   0.0257   0.0231   0.0572  -0.0061  -0.0049   0.0104   0.60    1.4
2017/10/23 03:34:58.800  -42.880634597  147.397291882    11.1645   2  19   0.0257   0.0231   0.0571  -0.0061  -0.0049   0.0105   0.80    1.4
2017/10/23 03:34:59.000  -42.880634578  147.397291905    11.1641   2  19   0.0256   0.0230   0.0570  -0.0061  -0.0049   0.0105   0.00    1.4
2017/10/23 03:34:59.200  -42.880634561  147.397291926    11.1621   2  19   0.0256   0.0230   0.0569  -0.0061  -0.0049   0.0105   0.20    1.4
2017/10/23 03:34:59.400  -42.880634537  147.397291961    11.1575   2  19   0.0256   0.0230   0.0569  -0.0062  -0.0050   0.0106   0.40    1.4
2017/10/23 03:34:59.600  -42.880634524  147.397291996    11.1532   2  19   0.0255   0.0230   0.0568  -0.0062  -0.0050   0.0106   0.60    1.5
2017/10/23 03:34:59.800  -42.880634506  147.397292014    11.1515   2  19   0.0255   0.0229   0.0567  -0.0062  -0.0050   0.0106   0.80    1.5
2017/10/23 03:35:00.000  -42.880634474  147.397292066    11.1548   2  19   0.0254   0.0229   0.0566  -0.0062  -0.0050   0.0107   0.00    1.5
2017/10/23 03:35:00.200  -42.880634437  147.397292086    11.1514   2  19   0.0254   0.0229   0.0565  -0.0062  -0.0050   0.0107   0.20    1.5
2017/10/23 03:35:00.400  -42.880634431  147.397292134    11.1480   2  19   0.0253   0.0229   0.0564  -0.0062  -0.0051   0.0107   0.40    1.5
2017/10/23 03:35:00.600  -42.880634419  147.397292173    11.1419   2  19   0.0253   0.0228   0.0563  -0.0062  -0.0051   0.0108   0.60    1.5
2017/10/23 03:35:00.800  -42.880634414  147.397292209    11.1372   2  19   0.0253   0.0228   0.0562  -0.0062  -0.0051   0.0108   0.80    1.5
2017/10/23 03:35:01.000  -42.880634384  147.397292224    11.1375   2  19   0.0252   0.0228   0.0561  -0.0062  -0.0051   0.0108   0.00    1.5
2017/10/23 03:35:01.200  -42.880634395  147.397292262    11.1337   2  19   0.0252   0.0227   0.0561  -0.0062  -0.0051   0.0109   0.20    1.5
2017/10/23 03:35:01.400  -42.880634381  147.397292295    11.1307   2  19   0.0251   0.0227   0.0560  -0.0062  -0.0052   0.0109   0.40    1.5
2017/10/23 03:35:01.600  -42.880634374  147.397292303    11.1284   2  19   0.0251   0.0227   0.0559  -0.0063  -0.0052   0.0109   0.60    1.5
2017/10/23 03:35:01.800  -42.880634369  147.397292360    11.1217   2  19   0.0251   0.0227   0.0558  -0.0063  -0.0052   0.0109   0.80    1.5
2017/10/23 03:35:02.000  -42.880634335  147.397292371    11.1203   2  19   0.0250   0.0226   0.0557  -0.0063  -0.0052   0.0110   0.00    1.5
